street_name,long_snode,lat_snode,long_enode,lat_enode
18,106.5374757,10.6812591,106.5402437,10.681695
3 Tháng 2,106.6811565,10.7776498,106.6482993,10.7575536
3 Tháng 2,106.6482993,10.7575536,106.6562075,10.7618422
3 Tháng 2,106.6562075,10.7618422,106.6453021,10.755822
3 Tháng 2,106.6656006,10.7667954,106.6597513,10.7637713
3 Tháng 2,106.6597513,10.7637713,106.6640311,10.7659517
3 Tháng 2,106.6639913,10.766037,106.6494435,10.7580658
3 Tháng 2,106.6494435,10.7580658,106.6734728,10.7711007
3 Tháng 2,106.6734728,10.7711007,106.6665142,10.7674299
3 Tháng 2,106.6665142,10.7674299,106.6639913,10.766037
An Dương Vương,106.6664058,10.7560028,106.6697746,10.7566251
An Dương Vương,106.6697746,10.7566251,106.669461,10.7566534
An Phú Đông,106.6884983,10.8581333,106.688522,10.8580682
An Phú Đông 10,106.6962199,10.8576365,106.6964506,10.8565038
An Phú Đông 3,106.7063222,10.8547157,106.7068791,10.8547574
Bà Hom,106.6313514,10.7546911,106.6311219,10.754722
Bà Huyện Thanh Quan,106.6832444,10.7807155,106.6884634,10.7767699
Bành Văn Trân,106.6569689,10.7904195,106.657746,10.7883571
Bàu Cát,106.6429867,10.7922881,106.6410455,10.7929669
Bình Lợi,106.7053404,10.8315214,106.7054531,10.8311762
Bình Thới,106.6512531,10.7684923,106.6476679,10.7661016
Bình Thới,106.6476679,10.7661016,106.643989,10.7636884
Bình Thới,106.643989,10.7636884,106.6422657,10.7628698
Bình Trị Đông,106.6100165,10.7614144,106.6100099,10.76138
Bùi Hữu Nghĩa,106.6742704,10.7555638,106.6976069,10.7940986
Bùi Thị Xuân,106.6626344,10.7984947,106.6628737,10.7979599
Bưng Ông Thoàn,106.7973612,10.8139216,106.7970824,10.8144883
Bưng Ông Thòan,106.7887386,10.828493,106.7885591,10.8287562
Bạch Đằng,106.6785067,10.8143903,106.710341,10.8029569
Bạch Đằng,106.7101437,10.8029724,106.7048266,10.8033698
Bạch Đằng,106.7048266,10.8033698,106.6656805,10.8139316
Bảy Hiền,106.6516978,10.7894105,106.6518377,10.7897093
Bắc Hải,106.6563416,10.7781305,106.6588525,10.7807392
Bắc Hải,106.658922,10.780807,106.6613755,10.7833862
Bắc Hải,106.6617536,10.7837858,106.6633132,10.7855566
Bến Bình Đông,106.6604156,10.7482848,106.6604156,10.7482848
Bến Cát,106.6568031,10.7852199,106.6568613,10.7851391
Bến Hàm Tử,106.673072,10.7494447,106.6681836,10.7507824
Bến Vân Đồn,106.6937223,10.7584116,106.6918919,10.7573004
Bờ Bao Tân Thắng,106.6216983,10.8073924,106.6186403,10.8012197
Calmette,106.6997404,10.7673072,106.6976851,10.7699124
Cao Thắng,106.678801,10.7729223,106.6802249,10.7716819
Cao Thắng,106.6798441,10.7720072,106.6791758,10.7725943
Cao Xuân Dục,106.6603737,10.7470453,106.6591277,10.746165
Cao tốc TP. Hồ Chí Minh - Long Thành - Dầu Giây,106.8473249,10.7860991,106.843937,10.7866225
Cao tốc TP. Hồ Chí Minh - Long Thành - Dầu Giây,106.843937,10.7866225,106.8358795,10.7883612
Cao tốc TP. Hồ Chí Minh - Long Thành - Dầu Giây,106.8358795,10.7883612,106.8268185,10.790253
Cao tốc TP. Hồ Chí Minh - Long Thành - Dầu Giây,106.8268185,10.790253,106.8178943,10.7918961
Cao tốc TP. Hồ Chí Minh - Long Thành - Dầu Giây,106.8178943,10.7918961,106.8117098,10.792934
Cao tốc TP. Hồ Chí Minh - Long Thành - Dầu Giây,106.8117098,10.792934,106.8052263,10.794041
Cao tốc TP. Hồ Chí Minh - Long Thành - Dầu Giây,106.8052263,10.794041,106.7995037,10.7950193
Cao tốc TP. Hồ Chí Minh - Long Thành - Dầu Giây,106.7995037,10.7950193,106.8557067,10.785892
Cao tốc TP. Hồ Chí Minh - Long Thành - Dầu Giây,106.8630211,10.7862476,106.8547623,10.7859557
Cao tốc TP. Hồ Chí Minh - Long Thành - Dầu Giây,106.8178476,10.7917928,106.8450235,10.786298
Cao tốc TP. Hồ Chí Minh - Long Thành - Dầu Giây,106.7824691,10.7964727,106.7599681,10.7949371
Cao tốc TP. Hồ Chí Minh - Long Thành - Dầu Giây,106.7599681,10.7949371,106.775074,10.7962415
Chu Văn An,106.6960454,10.8113215,106.7048425,10.811203
Châu Văn Liêm,106.6590317,10.7519402,106.6589344,10.7520192
Châu Văn Liêm,106.6587484,10.7529881,106.6584782,10.7537895
Chợ Lớn,106.6255188,10.7444411,106.6258206,10.7444479
Cách Mạng Tháng Tám,106.68085,10.7782417,106.6864011,10.7752936
Cách Mạng Tháng Tám,106.6864011,10.7752936,106.6839026,10.7766471
Cách Mạng Tháng Tám,106.6839026,10.7766471,106.662713,10.7879441
Cách Mạng Tháng Tám,106.6724641,10.7827246,106.6732878,10.7822806
Cây Bàng,106.5920538,10.7187059,106.5920047,10.7189172
Công Trường Dân Chủ,106.6815724,10.7775778,106.6815724,10.7775778
Công Trường Mê Linh,106.7065305,10.7748291,106.7065815,10.7748385
Công Trường Quách Thị Trang,106.6986125,10.7712269,106.6986499,10.7718767
Công Trường Quốc Tế,106.6962159,10.7829947,106.6955259,10.7826997
Công Xã Paris,106.7000845,10.7791557,106.6999777,10.7792456
Cầu 15B,106.7312394,10.7132819,106.7313098,10.7131905
Cầu An Lập,106.602171,10.729901,106.60178,10.7277176
Cầu Bình Lợi,106.7061476,10.8235017,106.7074369,10.8242579
Cầu Bình Lợi,106.7108326,10.8252486,106.706066,10.8239671
Cầu Bình Phú,106.7343846,10.8547733,106.7349099,10.8550441
Cầu Bình Phước 2,106.7150626,10.8607907,106.7155477,10.8612059
Cầu Bình Triệu 1,106.7136257,10.8215874,106.713869,10.8233581
Cầu Bình Triệu 2,106.7135696,10.8235017,106.7129039,10.8190196
Cầu Bông,106.6959206,10.7929272,106.6960125,10.7941308
Cầu Bùi Hữu Nghĩa,106.6974031,10.7930658,106.6976069,10.7940986
Cầu Băng Ky,106.6985355,10.8182453,106.6989116,10.8184238
Cầu Bến Cát,106.6652403,10.8614957,106.6653095,10.8614424
Cầu Bến Cát 1,106.6642282,10.8615207,106.6653693,10.8615229
Cầu Calmette,106.6998985,10.7671805,106.700715,10.7645089
Cầu Chà Và,106.6601636,10.750294,106.6603921,10.7487665
Cầu Chánh Hưng,106.6689199,10.7460556,106.668879,10.7416454
Cầu Chợ Cầu 1,106.6378814,10.8457909,106.6353191,10.8474862
Cầu Chữ Y,106.6836257,10.7509485,106.6842501,10.7536129
Cầu Cá Trê Lớn,106.7323124,10.7780689,106.7347388,10.7793052
Cầu Công Lý,106.6825988,10.7910679,106.681367,10.7921893
Cầu Cả Cấm,106.7257177,10.7225313,106.7249535,10.723735
Cầu Him Lam,106.6937024,10.7405245,106.6949897,10.7407629
Cầu Hiệp Ân 2,106.6613572,10.7433356,106.6616795,10.7433941
Cầu Hoàng Hoa Thám,106.693204,10.7946727,106.6927968,10.7958364
Cầu Kênh 2,106.7248969,10.7745747,106.7240549,10.7742939
Cầu Kênh B,106.5384069,10.7447939,106.5386627,10.7446677
Cầu Kênh Tẻ,106.7024382,10.7492889,106.7019835,10.754992
Cầu Kênh Xáng,106.6885411,10.7413597,106.6884693,10.7415302
Cầu Kỳ Hà 4,106.7606269,10.7559963,106.7597266,10.7550762
Cầu Lê Văn Sỹ,106.6815175,10.785862,106.6810825,10.7861078
Cầu Nguyễn Văn Cừ,106.6871934,10.7527375,106.6883922,10.7541132
Cầu Phú An,106.7131767,10.7923372,106.7134711,10.792197
Cầu Phú Mỹ,106.7400366,10.7428358,106.7441554,10.7449386
Cầu Phú Mỹ,106.7441554,10.7449386,106.7484952,10.7469406
Cầu Phú Mỹ,106.7484952,10.7469406,106.7527933,10.7490341
Cầu Phú Mỹ,106.7483935,10.7470262,106.7441524,10.7450815
Cầu Phú Mỹ,106.7441524,10.7450815,106.7279543,10.7347762
Cầu Phú Mỹ,106.7271372,10.7342194,106.7344584,10.7399509
Cầu Phước Long,106.7265583,10.703606,106.7247561,10.7028333
Cầu Rạch Chiếc 1,106.7563406,10.8099607,106.7575697,10.815571
Cầu Rạch Chiếc 2,106.7570201,10.8139606,106.7562309,10.8099928
Cầu Rạch Lăng,106.6983165,10.821591,106.6992827,10.8218467
Cầu Sài Gòn 1,106.7319201,10.7997621,106.7225975,10.7981356
Cầu Sài Gòn 2,106.7250464,10.7983208,106.728642,10.7988988
Cầu Sài Gòn 2,106.728642,10.7988988,106.7320752,10.7994998
Cầu Sơn,106.7115254,10.8055396,106.7115501,10.805844
Cầu Số 2,106.661654,10.7916133,106.6616367,10.7915741
Cầu Số 7,106.6710981,10.7879997,106.6711168,10.7880524
Cầu Tham Lương,106.6275189,10.8249297,106.6277019,10.8251111
Cầu Thanh Lộc,106.6696497,10.8608943,106.6698521,10.8610728
Cầu Thầy Tiêu,106.716972,10.7289172,106.7153476,10.7294379
Cầu Thị Nghè,106.7058445,10.7910523,106.707195,10.7924505
Cầu Thị Nghè 2,106.7093873,10.7875007,106.7096016,10.7876817
Cầu Thủ Thiêm,106.7192073,10.7844433,106.7177091,10.7874118
Cầu Trường Đai,106.6505875,10.8600761,106.650645,10.860121
Cầu Trần Quang Diệu,106.6784372,10.7843732,106.6784372,10.7843732
Cầu Tân Thuận 2,106.7224037,10.7537495,106.7224037,10.7537495
Cầu Tư Dinh,106.6980017,10.728864,106.6963878,10.728815
Cầu Văn Thánh,106.7165178,10.8003961,106.716054,10.8006159
Cầu Văn Thánh 2,106.7121753,10.7894924,106.7138262,10.7892164
Cầu Vĩnh Bình,106.7160636,10.8684531,106.7161334,10.8684713
Cầu cụt,106.6556187,10.8552658,106.655734,10.8551425
Cầu vượt An Sương,106.6149893,10.8423388,106.6172944,10.8445156
Cầu vượt Bình Phước,106.7238705,10.8653758,106.7227673,10.8648149
Cầu vượt Cây Gõ,106.6400826,10.7544547,106.6457375,10.7538631
Cầu vượt Cộng Hòa - Hoàng Hoa Thám,106.6450548,10.8020955,106.6479549,10.8017925
Cầu vượt Hàng Xanh,106.7109178,10.801349,106.7109087,10.8014241
Cầu vượt Linh Xuân,106.766864,10.8727455,106.7634192,10.8739107
Cầu vượt Lý Thái Tổ - Nguyễn Tri Phương,106.6652083,10.7666392,106.6699972,10.7692426
Cầu vượt Lý Thái Tổ - Nguyễn Tri Phương,106.6699972,10.7692426,106.667887,10.7681372
Cầu vượt Nguyễn Hữu Cảnh,106.7237951,10.7976427,106.7205235,10.7976579
Cầu vượt Ngã Sáu Gò Vấp,106.6792404,10.8280378,106.6798526,10.8260016
Cầu vượt Ngã Tư Ga,106.6803378,10.8629755,106.6799122,10.8591758
Cầu vượt Ngã tư Gò Dưa,106.7329016,10.8708511,106.73325,10.8717994
Cầu vượt Ngã tư Gò Mây,106.6017747,10.819436,106.6004668,10.8133227
Cầu vượt Ngã tư Hàng Xanh,106.7098827,10.8012395,106.7094146,10.8010524
Cầu vượt Ngã tư Thủ Đức,106.7747696,10.8499117,106.7730798,10.8478386
Cầu vượt Quang Trung,106.6314235,10.8502095,106.627222,10.8509611
Cầu vượt Sóng Thần 1,106.7511683,10.8753473,106.7515008,10.8754506
Cầu vượt Thủ Thiêm,106.716779,10.7890182,106.7150911,10.7891973
Cầu vượt Thủ Đức,106.7959178,10.8620872,106.7945633,10.8622393
Cầu vượt Trạm 2,106.7958668,10.8618381,106.795148,10.8607361
Cầu vượt Tân Thới Hiệp,106.6511715,10.8621176,106.6499973,10.8620995
Cầu Ðiện Biên Phủ,106.7005728,10.7935904,106.70102,10.7937716
Cầu Ông Dầu,106.7139796,10.8347246,106.7139479,10.8350834
Cầu Ông Đội,106.7312623,10.713383,106.7312577,10.7135062
Cầu Đen 2,106.7334642,10.7994405,106.7334573,10.7997398
Cống Quỳnh,106.6905496,10.7635026,106.688366,10.7666744
Cộng Hòa,106.6348128,10.8073797,106.6600301,10.8009238
Cộng Hòa,106.6600301,10.8009238,106.6509196,10.8016842
Cộng Hòa,106.6509196,10.8016842,106.6376734,10.8041993
D1,106.8011838,10.8488982,106.8008695,10.8492092
D2,106.8033886,10.8291371,106.8037053,10.8294096
Dương Bá Cung,106.6230902,10.7452866,106.6230775,10.7452699
Dương Bá Trạc,106.688839,10.7440266,106.6884045,10.7415004
Dương Thị Mười,106.6368278,10.8703305,106.6368738,10.8704226
Dương Văn Cam,106.7534794,10.8495638,106.7536678,10.8494184
Dường An Phú,106.6900349,10.83809,106.6820873,10.852303
Dạ Nam,106.686888,10.7536606,106.6869589,10.7531123
Dồng Tâm,106.6107839,10.8630927,106.6104704,10.8632256
Gò Dưa,106.73608,10.8691182,106.7267906,10.8665765
Hai Bà Trưng,106.7060815,10.7756896,106.6874653,10.7914566
Hai Bà Trưng,106.6871714,10.7916908,106.6989225,10.7821327
Hai Bà Trưng,106.6989225,10.7821327,106.6919402,10.78789
Hai Bà Trưng,106.6919402,10.78789,106.6864092,10.7922848
Hem 3m,106.6641842,10.7908008,106.6642609,10.7907633
Hiền Vương,106.6249308,10.7817224,106.6241211,10.7821668
Hiệp Bình,106.7327377,10.8374629,106.7284891,10.8450502
Hoà Bình,106.6355415,10.7696068,106.6421803,10.7667998
Hoà Hưng,106.6712231,10.7780404,106.676489,10.7800043
Hoà Hảo,106.6590053,10.7597892,106.6617195,10.7603765
Hoàng Diệu,106.6985617,10.7596225,106.6987767,10.7597771
Hoàng Hoa Thám,106.6470466,10.797138,106.6923844,10.8031077
Hoàng Minh Giám,106.6768879,10.8123044,106.6736261,10.80837
Hoàng Sa,106.659131,10.7931923,106.7005738,10.792888
Hoàng Sĩ Khải,106.64357,10.7390302,106.6427235,10.7384808
Hoàng Văn Thụ,106.6668173,10.800283,106.6535674,10.7932413
Hoàng Văn Thụ,106.6535674,10.7932413,106.666894,10.8002745
Hoàng Văn Thụ,106.666894,10.8002745,106.6717039,10.7999007
Hoàng Văn Thụ,106.6710835,10.7999559,106.6676731,10.8002636
Huỳnh Mẫn Đạt,106.6773307,10.7518689,106.6757437,10.758139
Huỳnh Thiện Lộc,106.6363843,10.7803932,106.6401733,10.7789563
Huỳnh Tấn Phát,106.753584,10.6783267,106.7282216,10.7525133
Huỳnh Văn Bánh,106.681914,10.7958652,106.6716163,10.7918192
Hà Huy Giáp,106.6798911,10.8589939,106.6768789,10.8717216
Hà Huy Giáp,106.6769479,10.8706967,106.6812882,10.8846445
Hà Huy Giáp,106.6812882,10.8846445,106.679258,10.8671779
Hàm Nghi,106.6991751,10.7711901,106.7059931,10.770794
Hàn Hải Nguyên,106.6492826,10.7579867,106.6457587,10.7582635
Hàn Hải Nguyên,106.6457587,10.7582635,106.648904,10.7580428
Hòa Bình,106.6353005,10.7695756,106.6257843,10.7723027
Hòa Bình,106.6238934,10.7728903,106.6229767,10.7731687
Hòa Hảo,106.66843,10.761856,106.66843,10.761856
Hùng Vương,106.678648,10.763637,106.6702787,10.7581844
Hùng Vương,106.6702787,10.7581844,106.666373,10.7562461
Hưng Nhơn,106.5856745,10.7159649,106.5985988,10.7117174
Hưng Phú,106.6682445,10.7461296,106.6689261,10.7462542
Hương Lộ 2,106.6211738,10.7735855,106.6212579,10.773618
Hương lộ 10,106.5406723,10.6817688,106.5412694,10.681336
Hương lộ 8,106.5406723,10.6817688,106.5444885,10.6828162
Hương lộ 8,106.5444885,10.6828162,106.550446,10.6844568
Hải Thượng Lãn Ông,106.6545334,10.7507545,106.6601575,10.7504376
Hải Thượng Lãn Ông,106.6601575,10.7504376,106.6593065,10.7507744
Hầm chui An Sương - N1,106.6149367,10.843311,106.6138112,10.8450745
Hầm chui Mỹ Thủy,106.7752086,10.7698762,106.775235,10.7698083
Hầm sông Sài Gòn,106.7031455,10.76834,106.7033248,10.7684374
Hậu Giang,106.6239247,10.7453991,106.6240715,10.745339
Hẻm 1129 Lạc Long Quân,106.6518377,10.7897093,106.6520158,10.7896403
Hẻm 131 Tô Hiến Thành,106.6698201,10.7808937,106.6704423,10.7793615
Hẻm 200C Xóm Chiếu,106.7100356,10.7550068,106.710014,10.7550302
Hẻm 246/64 Hòa Hưng,106.670628,10.7789044,106.6707568,10.7785872
Hẻm 297 Lý Thường Kiệt,106.656462,10.7765701,106.6563765,10.7765446
Hẻm 312 Kinh Dương Vương,106.6207621,10.7433547,106.6207225,10.7433184
Hẻm 322 Hòa Hưng,106.6710033,10.7779568,106.6707568,10.7785872
Hẻm 341 Khuông Việt,106.6376979,10.7693434,106.6410076,10.7719922
Hẻm 341 Lạc Long Quân,106.6405885,10.7691266,106.6414568,10.7684973
Hẻm 373 Lý Thường Kiệt,106.6503541,10.7790549,106.6539968,10.7799875
Hẻm 373 Lý Thường Kiệt,106.654269,10.7801804,106.6547735,10.7803895
Hẻm 416 Lạc Long Quân,106.6444644,10.7697921,106.6445026,10.7697654
Hẻm 5 Hạnh Thông,106.6800719,10.8265194,106.6792437,10.8280713
Hẻm 504 Kinh Dương Vương,106.6147828,10.7379148,106.6146944,10.7377688
Hẻm 506 Lạc Long Quân,106.6460379,10.7711649,106.6472103,10.7705706
Hẻm 574 Kinh Dương Vương,106.6096162,10.7321249,106.6109526,10.731368
Hẻm 602 Điện Biên Phủ,106.7178735,10.7987712,106.7178674,10.7986979
Hẻm 68 Trần Quang Khải,106.6936394,10.792788,106.6935778,10.7932473
Hẻm 84A Trần Hữu Trang,106.6724314,10.79358,106.6717593,10.7938991
Hẻm 86 Ông Ích Khiêm,106.6449394,10.7661735,106.6468344,10.7696411
Hẻm 86 Ông Ích Khiêm,106.647032,10.7699913,106.6471393,10.7702268
Hẻm 92 Vũ Huy Tấn,106.6927968,10.7958364,106.6925024,10.7973608
Hẻm 995 Hồng Bàng,106.636522,10.7546298,106.6365345,10.7543494
Hẻm Số 354,106.6582765,10.775411,106.6584192,10.7755941
Học Lạc,106.6544294,10.7519423,106.6544546,10.7516397
Hồ Chí Minh - Trung Lương,106.5896523,10.6887747,106.5930448,10.6894658
Hồ Hảo Hớn,106.6940131,10.7598239,106.6908753,10.763051
Hồ Văn Huê,106.677625,10.8045481,106.6781072,10.8054457
Hồ Văn Long,106.6005932,10.8253843,106.600561,10.8252537
Hồ Xuân Hương,106.6864011,10.7752936,106.6867311,10.7756788
Hồng Bàng,106.65443,10.75373,106.6634172,10.7554182
Hồng Bàng,106.6634172,10.7554182,106.6603376,10.7550108
Hồng Bàng,106.6603376,10.7550108,106.6530134,10.7534697
Hồng Bàng,106.6530134,10.7534697,106.6478806,10.753623
Hồng Bàng,106.6478806,10.753623,106.6507117,10.7533034
Hồng Hà,106.6652599,10.8134061,106.6747486,10.8140069
Hồng Hà,106.6747486,10.8140069,106.6758031,10.8142573
Hồng Lạc,106.6465073,10.7879176,106.6464872,10.7879756
Kha Vạn Cân,106.7153558,10.8270992,106.7545053,10.8504341
Kha Vạn Cân,106.7545053,10.8504341,106.725621,10.8319797
Kha Vạn Cân,106.725621,10.8319797,106.7463168,10.8413672
Kha Vạn Cân,106.7466044,10.8416342,106.7531191,10.8487665
Khuông Việt,106.6433121,10.7813924,106.6398819,10.7770894
Khánh Hội,106.6977387,10.7606879,106.7008416,10.7565916
Kinh Dương Vương,106.6235109,10.7455465,106.6071858,10.7282004
Kinh Dương Vương,106.6071858,10.7282004,106.6050773,10.7265851
Kinh Trung ương,106.5554753,10.7909507,106.5554064,10.7910811
Kênh 10,106.5725739,10.708894,106.5725888,10.7087587
Kênh Nước Đen,106.6172503,10.7884223,106.6166971,10.7881979
Kênh Tân Hoá,106.6355574,10.7693744,106.6399809,10.7786413
Linh Đông,106.7438406,10.8415361,106.7438406,10.8415361
Liên Xã,106.5839509,10.8884699,106.5840148,10.8885006
Lãnh Binh Thăng,106.6464629,10.7653269,106.6503161,10.7632537
Lãnh Binh Thăng,106.6504197,10.7631981,106.65559,10.7622847
Lãnh Binh Thăng,106.65559,10.7622847,106.6545324,10.7623992
Lê Duẩn,106.7035568,10.7857663,106.6984806,10.7803753
Lê Hoàng Phái,106.6753185,10.8428373,106.6754115,10.8395688
Lê Hồng Phong,106.6752404,10.765331,106.676833,10.761133
Lê Hồng Phong,106.6770991,10.760492,106.6749228,10.7663147
Lê Hồng Phong,106.6749228,10.7663147,106.6752055,10.7654291
Lê Khôi,106.6288442,10.7821969,106.6280309,10.779782
Lê Lai,106.6941287,10.7700912,106.6902339,10.76857
Lê Lợi,106.6990769,10.7722079,106.6999404,10.7732655
Lê Minh Xuân,106.651613,10.786231,106.6560086,10.7874965
Lê Quang Sung,106.6528193,10.7510631,106.6528193,10.7510631
Lê Quang Định,106.698423,10.802988,106.6894367,10.820498
Lê Quý Đôn,106.8004621,10.8838307,106.8015806,10.8810953
Lê Qúy Đôn,106.800583,10.8832727,106.800583,10.8832727
Lê Thánh Tôn,106.6995607,10.7746928,106.6990287,10.7740594
Lê Thị Hà,106.5981184,10.887776,106.5982675,10.8865251
Lê Trọng Tấn,106.621088,10.8077236,106.6156148,10.809165
Lê Tuấn Mậu,106.625679,10.7490204,106.6267106,10.7482606
Lê Văn Chí,106.7816929,10.8660484,106.7739597,10.8504219
Lê Văn Khương,106.6498425,10.8619111,106.6494524,10.8621838
Lê Văn Lương,106.7024735,10.6893503,106.7037515,10.7410217
Lê Văn Ninh,106.7547163,10.8510377,106.7534794,10.8495638
Lê Văn Quới,106.6215672,10.7735866,106.6093332,10.7762952
Lê Văn Qưới,106.6087456,10.7763027,106.6028052,10.7763962
Lê Văn Sỹ,106.67201,10.7915356,106.6656372,10.7962369
Lê Văn Sỹ,106.6645994,10.7970292,106.675853,10.7889674
Lê Văn Sỹ,106.6753896,10.7892124,106.6609346,10.800243
Lê Văn Thịnh,106.7657368,10.7765916,106.7659642,10.7769125
Lê Văn Thọ,106.6583227,10.8365053,106.658324,10.8364665
Lê Văn Tách,106.7542735,10.8761169,106.7609261,10.8783778
Lê Văn Việt,106.7744207,10.8486663,106.774693,10.8484707
Lê Đại Hành,106.6592488,10.7587163,106.6543476,10.766178
Lê Đại Hành,106.6543476,10.766178,106.6551501,10.7648499
Lê Đại Hành,106.6551501,10.7648499,106.6568351,10.7626323
Lê Đức Thọ,106.655946,10.8548517,106.6599389,10.8527915
Lê Đức Thọ,106.6622383,10.8515063,106.6693689,10.8472382
Lê Đức Thọ,106.6693689,10.8472382,106.6753185,10.8428373
Lê Đức Thọ,106.6753185,10.8428373,106.6496727,10.8625349
Lê Đức Thọ,106.680097,10.8385342,106.6787279,10.8404489
Lê Đức Thọ,106.6791366,10.8398015,106.6499071,10.8610348
Lý Chiêu Hoàng,106.6337742,10.7359493,106.633682,10.7359829
Lý Chính Thắng,106.6820441,10.7792426,106.6850959,10.788335
Lý Chính Thắng,106.6850959,10.788335,106.6851801,10.7885356
Lý Thái Tổ,106.6740246,10.7677425,106.6770101,10.7669304
Lý Thái Tổ,106.6770101,10.7669304,106.7956925,10.7461614
Lý Thái Tổ,106.7956925,10.7461614,106.8027109,10.7443127
Lý Thái Tổ,106.8044591,10.7438421,106.8141974,10.7376092
Lý Thái Tổ,106.8141974,10.7376092,106.6763647,10.7670409
Lý Thái Tổ,106.6763647,10.7670409,106.8238056,10.7312283
Lý Thái Tổ,106.8200297,10.7333357,106.6723696,10.7677321
Lý Thái Tổ,106.6723696,10.7677321,106.6741538,10.7676423
Lý Thường Kiệt,106.5896647,10.8866826,106.6565902,10.7757808
Lý Thường Kiệt,106.6565902,10.7757808,106.6588507,10.7677013
Lý Thường Kiệt,106.6588507,10.7677013,106.6612178,10.7592404
Lý Thường Kiệt,106.6612178,10.7592404,106.6618976,10.7571594
Lý Thường Kiệt,106.6618976,10.7571594,106.6595662,10.765485
Lý Thường Kiệt,106.6595662,10.765485,106.6572154,10.7738791
Lý Thường Kiệt,106.6572154,10.7738791,106.6549226,10.7820115
Lý Thường Kiệt,106.6549226,10.7820115,106.6529164,10.7887464
Lý Thường Kiệt,106.6529164,10.7887464,106.6552592,10.7805208
Lý Thường Kiệt,106.6552592,10.7805208,106.6557798,10.7787511
Lý Tự Trọng,106.6944832,10.7721656,106.7010583,10.7779424
Lý Tự Trọng,106.7010583,10.7779424,106.7046426,10.7818664
Lăng Cha Cả,106.6610875,10.8006191,106.6611458,10.8003982
Lũy Bán Bích,106.6339978,10.7592472,106.6317019,10.7696046
Lưu Hữu Phước,106.6337729,10.7232019,106.6337903,10.7231437
Lương Định Của,106.7104127,10.7750334,106.7108802,10.7749435
Lạc Long Quân,106.6422433,10.7662165,106.642118,10.761987
Lạc Long Quân,106.6421148,10.7617534,106.6506569,10.7832411
Lạc Long Quân,106.6506569,10.7832411,106.6499053,10.7795043
Lạc Long Quân,106.6498852,10.7790801,106.6426234,10.767159
Lạc Long Quân,106.6426234,10.767159,106.6477025,10.7742613
Lạc Long Quân,106.6477025,10.7742613,106.6444321,10.769814
Lạc Long Quân,106.6444321,10.769814,106.6423879,10.7666571
Lữ Gia,106.6529443,10.7711526,106.6571756,10.7705227
Lữ Gia,106.6572944,10.7705044,106.6529443,10.7711526
Mai Chí Thọ,106.7347388,10.7793052,106.7417533,10.7833905
Mai Chí Thọ,106.7417533,10.7833905,106.7224129,10.7733243
Mai Chí Thọ,106.7322207,10.7784791,106.7529968,10.8012401
Mai Chí Thọ,106.7522864,10.7948062,106.7505717,10.7882091
Mai Chí Thọ,106.7502508,10.7882923,106.7519,10.7924075
Mai xuân Thưởng,106.6476989,10.7512719,106.6476921,10.7512316
Marie Curie,106.8017773,10.8786289,106.8000739,10.8788557
Minh Phụng,106.6438018,10.7577151,106.6446172,10.7626846
Minh Phụng,106.6446172,10.7626846,106.6430363,10.7535751
Mã Lò,106.5989412,10.7834104,106.6008637,10.7764236
Mạc Cửu,106.6592038,10.750597,106.6592357,10.7506107
Nam Hoà,106.7672026,10.8324177,106.7582527,10.8188716
Nam Kỳ Khởi Nghĩa,106.6990601,10.7758374,106.683905,10.7898473
Nam Kỳ Khởi Nghĩa,106.683905,10.7898473,106.6931176,10.781312
Nghĩa Phát,106.6543665,10.7836425,106.6579632,10.7857783
Nguyễn Biểu,106.6831763,10.757374,106.6841957,10.7545595
Nguyễn Bình,106.7460372,10.6764523,106.7461005,10.6764671
Nguyễn Bỉnh Khiêm,106.7034865,10.7886678,106.700004,10.7918707
Nguyễn Bỉnh Khiêm,106.6999228,10.7919424,106.7035492,10.7886038
Nguyễn Cao,106.7122757,10.7279406,106.712277,10.7283925
Nguyễn Cao Bắc,106.712272,10.7311497,106.7122946,10.7302354
Nguyễn Chí Thanh,106.6655719,10.7592538,106.6615004,10.7584107
Nguyễn Chí Thanh,106.6614527,10.7584006,106.6669516,10.7595294
Nguyễn Chí Thanh,106.6669516,10.7595294,106.6510842,10.756343
Nguyễn Chí Thanh,106.6510842,10.756343,106.6704457,10.7601722
Nguyễn Chí Thanh,106.6704457,10.7601722,106.6731253,10.760806
Nguyễn Cơ Thạch,106.7226291,10.7768151,106.7220698,10.779091
Nguyễn Cư Trinh,106.6921459,10.7646953,106.6902673,10.7639667
Nguyễn Cửu Vân,106.7058178,10.7963537,106.7063387,10.7960538
Nguyễn Du,106.7010865,10.7801784,106.7933053,10.8802415
Nguyễn Du,106.8020366,10.8839415,106.7847868,10.8805839
Nguyễn Duy,106.6688752,10.7447602,106.6689569,10.7448407
Nguyễn Hoàng,106.7438952,10.801925,106.7439955,10.8017112
Nguyễn Huệ,106.7062982,10.7719889,106.7061791,10.7719977
Nguyễn Hậu,106.6346835,10.7872262,106.634782,10.7874845
Nguyễn Hồng Đào,106.6418466,10.7924125,106.6419251,10.7926149
Nguyễn Hữu Cảnh,106.712201,10.7896678,106.7098683,10.7888202
Nguyễn Hữu Cầu,106.6911349,10.791062,106.6904811,10.7900598
Nguyễn Hữu Thọ,106.7002329,10.7365428,106.7003063,10.7303579
Nguyễn Hữu Thọ,106.7000037,10.7324712,106.6999333,10.7330629
Nguyễn Hữu Trí,106.5802906,10.6929789,106.5689492,10.6903712
Nguyễn Hữu Trí,106.5689492,10.6903712,106.5540502,10.6854735
Nguyễn Hữu Trí,106.5540502,10.6854735,106.5939709,10.6963436
Nguyễn Hữu Tự,106.6967184,10.7926663,106.6961576,10.7926985
Nguyễn Khoái,106.6939259,10.7558779,106.6952956,10.7533608
Nguyễn Kim,106.6616043,10.7643679,106.6623333,10.7607717
Nguyễn Kim,106.6623843,10.7605205,106.6633772,10.7556227
Nguyễn Kim,106.6633772,10.7556227,106.6633989,10.7555118
Nguyễn Kiệm,106.680033,10.7998472,106.6787757,10.8194173
Nguyễn Kiệm,106.6787669,10.8192058,106.6786725,10.8132332
Nguyễn Kiệm,106.6786725,10.8132332,106.6787698,10.8135747
Nguyễn Lương Bằng,106.7180368,10.7348064,106.7253596,10.7232098
Nguyễn Lương Bằng,106.7203264,10.7310052,106.7200097,10.7318083
Nguyễn Lương Bằng nối dài,106.7318964,10.7087139,106.7314656,10.7130973
Nguyễn Ngọc Lộc,106.6640385,10.7659563,106.6640385,10.7659563
Nguyễn Nhược Thị,106.6402431,10.7369895,106.6403352,10.7369774
Nguyễn Oanh,106.6787535,10.8506971,106.6775689,10.8308983
Nguyễn Phúc Nguyên,106.6792239,10.7805493,106.6789157,10.7820636
Nguyễn Sơn,106.6254206,10.7831843,106.6288258,10.7821283
Nguyễn Thi,106.6591297,10.7505935,106.6591695,10.7505909
Nguyễn Thiện Thuật,106.679824,10.7680707,106.6802989,10.7676816
Nguyễn Thái Bình,106.6523793,10.7964689,106.6598663,10.800764
Nguyễn Thái Học,106.69714,10.7651757,106.6954254,10.7679022
Nguyễn Thái Sơn,106.6790274,10.8145897,106.6814029,10.8177209
Nguyễn Thái Sơn,106.6814029,10.8177209,106.683148,10.819754
Nguyễn Thông,106.679297,10.781667,106.6843698,10.7781284
Nguyễn Thông,106.6849154,10.7778272,106.6869946,10.7759864
Nguyễn Thượng Hiền,106.6820734,10.7770101,106.6821788,10.776852
Nguyễn Thị Diệu Hương,106.655911,10.7779274,106.655911,10.7779274
Nguyễn Thị Minh Khai,106.682324,10.7660316,106.6818889,10.7657285
Nguyễn Thị Minh Khai,106.6818889,10.7657285,106.7045845,10.7897016
Nguyễn Thị Nghĩa,106.6940986,10.7701435,106.6945589,10.7693254
Nguyễn Thị Nhung,106.7054307,10.8433563,106.7057848,10.8435122
Nguyễn Thị Nhỏ,106.6504956,10.7514819,106.6527803,10.7716614
Nguyễn Thị Nhỏ,106.6527803,10.7716614,106.6507502,10.753478
Nguyễn Thị Nhỏ,106.6508617,10.7544346,106.6513356,10.758499
Nguyễn Thị Nhỏ,106.6513792,10.7588735,106.6513758,10.7591706
Nguyễn Thị Thập,106.699903,10.7406127,106.7068498,10.7394635
Nguyễn Thị Thập,106.7068498,10.7394635,106.7035805,10.7399476
Nguyễn Thị Tần,106.6845345,10.7492439,106.6848291,10.7486955
Nguyễn Thị Đặng,106.6414169,10.867202,106.6416344,10.8676811
Nguyễn Thị Định,106.7773201,10.7682878,106.7826284,10.7636062
Nguyễn Thị Định,106.7826284,10.7636062,106.7889248,10.7581359
Nguyễn Tri Phương,106.6690295,10.7590308,106.6684746,10.7614123
Nguyễn Tri Phương,106.6684746,10.7614123,106.6674092,10.7666599
Nguyễn Tri Phương,106.6674092,10.7666599,106.6696106,10.7546206
Nguyễn Tri Phương,106.6696106,10.7546206,106.6695017,10.7522326
Nguyễn Trãi,106.6929369,10.7710906,106.6628252,10.7532859
Nguyễn Trãi,106.6628252,10.7532859,106.6708395,10.7548304
Nguyễn Trãi,106.6708395,10.7548304,106.6758517,10.7562318
Nguyễn Trãi,106.6762478,10.7563856,106.6535477,10.7527545
Nguyễn Trãi,106.6535477,10.7527545,106.6883289,10.7669665
Nguyễn Trọng Trí,106.6176488,10.7407342,106.6175944,10.7406865
Nguyễn Trọng Tuyển,106.6699079,10.7980849,106.6665835,10.7984011
Nguyễn Trọng Tuyển,106.6674578,10.7983381,106.6699079,10.7980849
Nguyễn Tuyển,106.7653756,10.7833422,106.7652891,10.7836471
Nguyễn Tất Thành,106.7071763,10.7650945,106.7164541,10.7578081
Nguyễn Văn Bá,106.7687324,10.8415062,106.773359,10.8496688
Nguyễn Văn Bá (nối dài),106.7843268,10.8565707,106.7908151,10.8603829
Nguyễn Văn Bá (nối dài),106.7908151,10.8603829,106.7901143,10.8599603
Nguyễn Văn Cừ,106.6819889,10.7643811,106.683007,10.7622438
Nguyễn Văn Cừ,106.683007,10.7622438,106.6818405,10.765251
Nguyễn Văn Giai,106.697328,10.7926284,106.6974031,10.7930658
Nguyễn Văn Khối,106.6441247,10.8463002,106.6571611,10.8425938
Nguyễn Văn Linh,106.7181438,10.7293691,106.7213386,10.7340089
Nguyễn Văn Linh,106.7123109,10.7290654,106.6949806,10.7287779
Nguyễn Văn Linh,106.7192028,10.7311956,106.7269803,10.7526944
Nguyễn Văn Luông,106.6337889,10.7357509,106.6353149,10.7485677
Nguyễn Văn Lượng,106.6799748,10.8384914,106.6659911,10.8386842
Nguyễn Văn Lạc,106.7089225,10.79196,106.708958,10.7921268
Nguyễn Văn Nghi,106.6887972,10.8214371,106.6869947,10.8238312
Nguyễn Văn Quá,106.6265884,10.8261451,106.6266087,10.8264064
Nguyễn Văn Quý,106.73585,10.7402847,106.7361197,10.7404302
Nguyễn Văn Quỳ,106.7405148,10.7432943,106.7313895,10.7383028
Nguyễn Văn Trỗi,106.6800466,10.7929933,106.6707041,10.7985035
Nguyễn Văn Trỗi,106.6707041,10.7985035,106.6777789,10.7941581
Nguyễn Văn Tăng,106.8286983,10.8428497,106.8281916,10.8424012
Nguyễn Văn Đậu,106.6938401,10.8143614,106.6882022,10.8085648
Nguyễn Xiển,106.8363216,10.8592096,106.8346037,10.8837836
Nguyễn Xuân Khoát,106.6345051,10.7951766,106.6345715,10.7954885
Nguyễn Xí,106.7033547,10.8226293,106.7031447,10.8230448
Nguyễn Ðình Chiểu,106.7031476,10.7924028,106.6963948,10.7851071
Nguyễn Ðình Chiểu,106.6963948,10.7851071,106.6824793,10.7704394
Nguyễn Ðình Chiểu,106.6918856,10.7803604,106.6800536,10.767872
Nguyễn Đình Chiểu,106.6789788,10.8033297,106.6796467,10.8034825
Nguyễn Đình Chính,106.6755726,10.7956505,106.6778016,10.7949615
Nguyễn Đức Cảnh,106.7085848,10.7283976,106.7085817,10.7285196
Nguyễn Đức Thuận,106.6403983,10.8073545,106.6404336,10.8072353
Nguyễn Ảnh Thủ,106.6071961,10.8552391,106.6071458,10.8551791
Ngã Bảy Lý Thái Tổ,106.6744532,10.7679102,106.6744532,10.7679102
Ngã Sáu Nguyễn Tri Phương,106.6687226,10.7598992,106.6687397,10.7599392
Ngã sáu Cộng Hòa,106.681627,10.7651637,106.6815426,10.765182
Ngã tư An Sương,106.6150302,10.8428093,106.6152871,10.8429984
Ngã tư Hàng Xanh,106.7110941,10.8013276,106.7111262,10.8012791
Ngô Chí Quốc,106.730453,10.8740594,106.7302504,10.8738081
Ngô Gia Tự,106.6664916,10.7565017,106.670086,10.7615444
Ngô Gia Tự,106.6702758,10.7618189,106.666426,10.7563976
Ngô Gia Tự,106.6664916,10.7565017,106.6679699,10.7585909
Ngô Gia Tự,106.6687226,10.7598159,106.6738588,10.7669024
Ngô Gia Tự,106.6738588,10.7669024,106.6740191,10.7671362
Ngô Nhân Tịnh,106.6533788,10.7504649,106.6533788,10.7504649
Ngô Quyền,106.664104,10.7656858,106.6650929,10.7613478
Ngô Quyền,106.6650929,10.7613478,106.6661917,10.756629
Ngô Quyền,106.6661917,10.756629,106.6666573,10.7533937
Ngô Quyền,106.6667664,10.752477,106.6668579,10.7517792
Ngô Tất Tố,106.7139268,10.7918618,106.7127835,10.7924353
Nhánh A1,106.7532978,10.7932441,106.7524658,10.7926709
Nhánh A2,106.7532978,10.7932441,106.7522965,10.7938273
Nhánh B1,106.7519936,10.7923857,106.7536837,10.7926848
Ni Sư Huỳnh Liên,106.6494573,10.782654,106.6497547,10.7821504
Núi Thành,106.643124,10.8009799,106.6429183,10.8007478
Nơ Trang Long,106.6954833,10.8112469,106.706678,10.8252639
Pasteur,106.7014834,10.7732727,106.6988251,10.7778266
Pasteur,106.6988251,10.7778266,106.7010371,10.7743326
Pham Ngũ Lão,106.6832697,10.8207556,106.6808708,10.8251544
Phan Huy ích,106.6401134,10.8442903,106.6297806,10.8231377
Phan Thúc Duyện,106.6589142,10.8052601,106.6635788,10.8026411
Phan Văn Hớn,106.6249037,10.8274348,106.6008101,10.8389566
Phan Văn Trị,106.6954833,10.8112469,106.6746596,10.831922
Phan Văn Trị,106.6745438,10.8319624,106.6885765,10.8269605
Phan Văn Trị,106.6885765,10.8269605,106.6954833,10.8112469
Phan Văn Đáng,106.7929002,10.7468469,106.7931437,10.7471454
Phan Văn Đối,106.5950621,10.8296291,106.5949971,10.8295371
Phan Xích Long,106.6832089,10.8015575,106.6869344,10.799015
Phan Đình Giót,106.6677637,10.8001795,106.6644615,10.8046866
Phan Đình Phùng,106.6839488,10.7942586,106.6803031,10.7991177
Phan Đình Phùng,106.6803031,10.7991177,106.6802718,10.7991862
Phan Đăng Lưu,106.6965436,10.8025532,106.6845465,10.8032397
Phan Đăng Lưu,106.6857885,10.8039468,106.687792,10.8037891
Phan Đăng Lưu,106.687792,10.8037891,106.6803694,10.7993486
Phạm Văn Đồng,106.6992827,10.8218467,106.6849075,10.8173044
Phạm Văn Đồng,106.6833531,10.8163711,106.7354087,10.8384481
Phạm Văn Đồng,106.7363075,10.838735,106.6917234,10.8200201
Phạm Văn Đồng,106.6902882,10.8196001,106.7326464,10.837129
Phạm Văn Đồng,106.6867094,10.818071,106.7030896,10.823167
Phạm Văn Đồng,106.7053644,10.8233047,106.7435101,10.8408851
Phó Cơ Điều,106.6570028,10.7620243,106.657093,10.7575292
Phó Cơ Điều,106.657093,10.7575292,106.6571078,10.758013
Phó Ðức Chính,106.6991208,10.7707145,106.7010097,10.7676642
Phú Châu,106.7448654,10.8628859,106.7473789,10.8658949
Phú Hòa,106.6510434,10.7849204,106.6533302,10.7854926
Phú Hữu,106.6537519,10.7535742,106.6533152,10.7510733
Phú Thuận,106.729495,10.729784,106.7298359,10.729912
Phú Thọ,106.641575,10.7589846,106.641586,10.7589257
Phường 10,106.6677962,10.7681682,106.6677962,10.7681682
Phường 13,106.7008658,10.8345705,106.6514144,10.8592742
Phường 14,106.6590186,10.7507925,106.6439339,10.8515609
Phường 3,106.6786944,10.8146655,106.6767178,10.8120867
Phường 7,106.6615305,10.7646858,106.6615305,10.7646858
Phường 8,106.674106,10.7575894,106.6739837,10.757428
Phường An Bình,106.7588382,10.8753861,106.7505911,10.8750874
Phường An Lạc A,106.61846,10.7414323,106.6184129,10.7413924
Phường An Phú,106.7557929,10.8094109,106.7560287,10.8097169
Phường An Phú Đông,106.6996423,10.8391657,106.6938042,10.8340778
Phường An Phú Đông,106.6941172,10.8643469,106.6913666,10.8519273
Phường An Phú Đông,106.6874451,10.8521558,106.7000553,10.8523365
Phường Bình Chiểu,106.7287564,10.8878174,106.728711,10.8878003
Phường Bình Hưng Hòa B,106.5779904,10.8045394,106.5934583,10.785662
Phường Bình Thắng,106.8049329,10.8853354,106.8048936,10.8852651
Phường Bến Nghé,106.6984933,10.780376,106.6984806,10.7803753
Phường Bến Thành,106.6930624,10.7713876,106.6933233,10.7715326
Phường Cát Lái,106.7888166,10.7581824,106.7889037,10.7581122
Phường Hiệp Bình Chánh,106.7145095,10.8260009,106.7326691,10.8374007
Phường Hiệp Bình Phước,106.7045433,10.8410074,106.7050813,10.8412473
Phường Linh Trung,106.7673863,10.8724231,106.8026394,10.867122
Phường Linh Xuân,106.7757156,10.8708535,106.7669177,10.8728261
Phường Linh Đông,106.7438935,10.8413507,106.7442274,10.8408414
Phường Nguyễn Cư Trinh,106.6907611,10.7642694,106.690743,10.7642807
Phường Phú Thuận,106.7432344,10.7192661,106.7432765,10.7199382
Phường Sơn Kỳ,106.6190596,10.8013922,106.6190675,10.8013405
Phường Tam Bình,106.728414,10.8649833,106.7285029,10.8648292
Phường Tam Phú,106.7454594,10.8636069,106.7455177,10.8635251
Phường Thạnh Lộc,106.6796891,10.8587824,106.6795635,10.8587301
Phường Thảo Điền,106.7293575,10.8005193,106.7464095,10.8025976
Phường Trung Mỹ Tây,106.6264888,10.8521986,106.6265032,10.8521149
Phường Tân Phú,106.8069619,10.870652,106.7295974,10.7158518
Phường Tân Thuận Tây,106.7241939,10.7523982,106.7242338,10.7522526
Phường Tân Thới Nhất,106.6156611,10.8423995,106.6155929,10.842552
Phường Đông Hòa,106.8030852,10.8762972,106.7842783,10.8674881
Phường Đông Hòa,106.7842783,10.8674881,106.8076326,10.8738915
Phường Đông Hưng Thuận,106.6308139,10.8502828,106.6309142,10.850249
Phạm Hùng,106.6691251,10.7484337,106.6689249,10.740971
Phạm Hồng Thái,106.6938843,10.7712522,106.6963858,10.7711253
Phạm Hữu Lầu,106.7321155,10.7045223,106.7321155,10.7045223
Phạm Ngũ Lão,106.6941176,10.7690424,106.6883701,10.7667354
Phạm Ngọc Thạch,106.6978143,10.78092,106.6969534,10.7817113
Phạm Phú Thứ,106.6438571,10.7444878,106.6466566,10.7897886
Phạm Thiều,106.7230082,10.7266492,106.7231231,10.7267196
Phạm Thái Bường,106.7086074,10.7273833,106.7097716,10.7274088
Phạm Thế Hiển,106.6548139,10.7404244,106.6874216,10.7508219
Phạm Văn Bạch,106.6330654,10.8138819,106.6464179,10.8374497
Phạm Văn Chiêu,106.665484,10.8541753,106.6602254,10.8523298
Phạm Văn Hai,106.6653921,10.8000753,106.6645994,10.7970292
Phạm Văn Đồng,106.7222594,10.8289838,106.7634123,10.8705207
Phạm Văn Đồng,106.7633832,10.8701199,106.7571974,10.8641108
Phạm Văn Đồng,106.7571974,10.8641108,106.7518877,10.8575701
Phạm Văn Đồng,106.7518877,10.8575701,106.7489666,10.849516
Phạm Văn Đồng,106.7489666,10.849516,106.7439592,10.8414243
Phạm Văn Đồng,106.7439592,10.8414243,106.7511033,10.8529635
Phạm Văn Đồng,106.7511033,10.8529635,106.7620017,10.8667147
Phạm Văn Đồng,106.7394746,10.8398287,106.710872,10.8251409
Phạm Văn Đồng,106.7074369,10.8242579,106.7157505,10.8262487
Phạm Văn Đồng,106.7181851,10.8270542,106.7294684,10.8344857
Phạm Văn Đồng,106.7294684,10.8344857,106.6818266,10.8156051
Phạm Văn Đồng,106.6814749,10.8154234,106.6975926,10.8212703
Phạm Văn Đồng,106.6975926,10.8212703,106.7325701,10.8370873
Phạm Văn Đồng,106.7384111,10.8395571,106.7301125,10.8353219
Phạm Văn Đồng,106.7284081,10.8339731,106.7114115,10.8252909
Phạm Văn Đồng,106.7617638,10.8666573,106.6869633,10.8185142
Phạm Văn Đồng,106.6869633,10.8185142,106.7316781,10.8367273
Phạm Văn Đồng,106.7316781,10.8367273,106.7254178,10.8316231
Phạm Văn Đồng,106.7254178,10.8316231,106.7418062,10.8402083
Phạm Văn Đồng,106.7418062,10.8402083,106.7343264,10.8380903
Phạm Văn Đồng,106.7343264,10.8380903,106.7620017,10.8667147
Phạm Đình Hổ,106.6496345,10.7521361,106.649744,10.753419
Phạm Đăng Giảng,106.60636,10.8214287,106.6044259,10.818044
Phổ Quang,106.6658741,10.8025366,106.6687556,10.8087826
Phổ Quang,106.6687556,10.8087826,106.6717917,10.8085272
Quang Trung,106.6794606,10.8266931,106.6706701,10.8299958
Quang Trung,106.6706701,10.8299958,106.6605258,10.835952
Quang Trung,106.6605258,10.835952,106.6466938,10.8395934
Quang Trung,106.6397062,10.844692,106.6634568,10.8350079
Quang Trung,106.6634568,10.8350079,106.6419808,10.8430788
Quang Trung,106.6419808,10.8430788,106.6544376,10.8374889
Quang Trung,106.6544376,10.8374889,106.6472307,10.8393084
Quách Thị Trang,106.8474689,10.7130085,106.8475454,10.7086939
Quách Thị Trang,106.847625,10.7044998,106.8398361,10.7041127
Quách Thị Trang,106.8353721,10.7047386,106.8345554,10.7048398
Quách Thị Trang,106.8287243,10.7052216,106.8257462,10.7054699
Quách Thị Trang,106.8237646,10.7063918,106.8236348,10.7065115
Quảng trường sáng tạo,106.8052044,10.8754861,106.805084,10.8742918
Quận 11,106.6534073,10.7673207,106.6497631,10.753578
Quận 8,106.6881377,10.7493268,106.6882437,10.7490054
Quận Gò Vấp,106.6900639,10.8193084,106.6899222,10.8195596
Quận Tân Bình,106.6523466,10.7902723,106.6648526,10.8117157
Quốc Lộ 1,106.597382,10.7047068,106.5973319,10.7045783
Quốc lộ 1,106.7474536,10.8741188,106.6008754,10.7226708
Quốc lộ 1,106.6008754,10.7226708,106.7794278,10.8684975
Quốc lộ 1,106.7813371,10.8678819,106.6586551,10.8617623
Quốc lộ 1,106.6586551,10.8617623,106.6541628,10.8620129
Quốc lộ 1,106.6494828,10.8620634,106.7668518,10.8725843
Quốc lộ 1,106.7887782,10.8671103,106.7733958,10.8706221
Quốc lộ 1,106.7733958,10.8706221,106.7915871,10.8666505
Quốc lộ 1,106.7915871,10.8666505,106.748644,10.8752124
Quốc lộ 13,106.7200233,10.8513034,106.7132132,10.8180299
Quốc lộ 1A,106.7487214,10.8747377,106.6858709,10.8609657
Quốc lộ 1A,106.6986862,10.8599881,106.7052214,10.859221
Quốc lộ 1K,106.766068,10.8757339,106.7705975,10.8833914
Quốc lộ 1K,106.7701845,10.8828952,106.765511,10.8746157
Quốc lộ 22,106.6149314,10.8434511,106.6057733,10.8575697
Quốc lộ 22,106.6057733,10.8575697,106.6000503,10.86564
Quốc lộ 22,106.6000503,10.86564,106.5966668,10.8704157
Quốc lộ 22,106.5966668,10.8704157,106.5916776,10.8774435
Quốc lộ 22,106.5916776,10.8774435,106.6138112,10.8450745
Quốc lộ 22,106.6128986,10.8466302,106.6149651,10.843027
Quớc Lộ 22,106.6140548,10.8449041,106.5914673,10.877854
Quớc Lộ 22,106.5900475,10.8798576,106.5863138,10.8851888
Raymondienne,106.7231704,10.7267486,106.7236852,10.7270427
Rạch Bùng Binh,106.6785811,10.7794508,106.6803024,10.7840477
Song Hành,106.7334658,10.7992821,106.7485095,10.8021502
Sư Van Hạnh,106.6738445,10.7575965,106.6735498,10.7589142
Sư Van Hạnh,106.6735498,10.7589142,106.6725291,10.7633633
Sư Van Hạnh,106.6725291,10.7633633,106.6710798,10.7696215
Sư Vạn Hạnh,106.6659013,10.7774435,106.6682193,10.7742735
Sư Vạn Hạnh,106.6683653,10.7740549,106.6705481,10.77004
Sư Vạn Hạnh,106.6705481,10.77004,106.6705481,10.77004
Số 12,106.7578623,10.867114,106.7622334,10.8672756
Số 18,106.6066965,10.8226043,106.6059457,10.8232027
Số 7,106.6029789,10.8249576,106.6029143,10.8249497
T1 Loop,106.6643618,10.8124942,106.6648739,10.812469
THOI TAM THÔN 5,106.6105297,10.8842932,106.6106839,10.8842093
THOI TAM THÔN 5,106.6159517,10.8826122,106.6112355,10.8839449
Tam Bình,106.7287514,10.845997,106.7381233,10.8560454
Tam Bình,106.7421212,10.8609748,106.743489,10.8625757
Tam Đảo nối dài,106.6578456,10.7748455,106.6589017,10.7762132
Thiên Phước,106.6555539,10.778088,106.6532873,10.7756928
Thoại Ngọc Hầu,106.621551,10.7737359,106.6392437,10.7842211
Thoại Ngọc Hầu,106.6392437,10.7842211,106.6416689,10.78599
Thuận Kiều,106.6587965,10.7597225,106.6584197,10.7552474
Thuận Kiều,106.6584197,10.7552474,106.6584197,10.7552474
Thành Thái,106.6588525,10.7807392,106.6617292,10.7782236
Thành Thái,106.6617292,10.7782236,106.6645769,10.7739209
Thành Thái,106.6645769,10.7739209,106.6661869,10.7697668
Thành Thái,106.6661869,10.7697668,106.6670725,10.7675961
Thành phố Thuận An,106.6998839,10.8877621,106.6944551,10.8886155
Thánh Gióng,106.8100261,10.8820255,106.8089551,10.8827193
Tháp Mười,106.6494313,10.7497109,106.6545334,10.7507545
Thân Nhân Trung,106.6423382,10.8023976,106.6424147,10.8029475
Thích Quảng Đức,106.6785195,10.8082313,106.684482,10.8033105
Thăng Long,106.6610854,10.8045573,106.6609131,10.8039431
Thạnh Lộc 29,106.678258,10.8776731,106.6801765,10.8774274
Thế Lữ,106.5386925,10.7202232,106.542567,10.718012
Thị trấn Tân Túc,106.5693537,10.6795155,106.5693331,10.6797073
Thống Nhất,106.6652733,10.8397244,106.6644581,10.8348284
Trang Tử,106.6532793,10.7516644,106.6504956,10.7514819
Transfer between the Metro and the HSR,106.7557179,10.8081678,106.7559278,10.8085665
Trung Mỹ Tây 2A,106.6123545,10.8471993,106.6124805,10.8472751
Trương Công Định,106.6417176,10.7983099,106.6402984,10.7937318
Trương Quốc Dung,106.672673,10.7950667,106.6729603,10.7997004
Trương Định,106.6966242,10.7712056,106.6863035,10.7807024
Trương Định,106.6835712,10.7824606,106.6803024,10.7840477
Trường Chinh,106.6519615,10.7936226,106.6323883,10.8152248
Trường Chinh,106.6323883,10.8152248,106.6345381,10.8083021
Trường Chinh,106.6345381,10.8083021,106.6235423,10.829463
Trường Chinh,106.6235423,10.829463,106.6160676,10.8417386
Trường Chinh,106.6212255,10.8332849,106.6326825,10.8136617
Trường Chinh,106.6430538,10.7984865,106.6246086,10.8284986
Trường Chinh,106.6218498,10.832788,106.6227295,10.8311999
Trường Chinh,106.6227295,10.8311999,106.6187325,10.8373896
Trường Chinh,106.6187325,10.8373896,106.647854,10.7959135
Trường Chinh,106.647854,10.7959135,106.6206709,10.8339258
Trường Chinh,106.6206709,10.8339258,106.6211617,10.83315
Trường Sa,106.6855754,10.7925479,106.7006919,10.7939608
Trường Sơn,106.6649688,10.8130718,106.6650145,10.8111229
Trần Bình Trọng,106.6803749,10.7592606,106.6807561,10.7582717
Trần Huy Liệu,106.6779981,10.792161,106.6778425,10.794303
Trần Hưng Ðạo,106.6580656,10.7520028,106.6632877,10.752179
Trần Hưng Ðạo,106.6632877,10.752179,106.6953474,10.7680299
Trần Hưng Ðạo,106.6953474,10.7680299,106.692428,10.7644448
Trần Hưng Ðạo,106.6714119,10.7529032,106.6684652,10.752615
Trần Hữu Trang,106.6753149,10.7935553,106.673077,10.7940624
Trần Khắc Chân,106.6784691,10.7993219,106.6758626,10.8014439
Trần Minh Quyền,106.6737333,10.771263,106.6752791,10.770053
Trần Nam Trung,106.8191301,10.7085686,106.8236348,10.7065115
Trần Nhân Tôn,106.6755174,10.7590354,106.6746392,10.7632459
Trần Nhân Tôn,106.6746238,10.7633139,106.673962,10.7664111
Trần Não,106.730462,10.7912282,106.7303648,10.7916195
Trần Não,106.7303648,10.7916195,106.7334587,10.7992203
Trần Não,106.7308494,10.7982738,106.7318819,10.7981949
Trần Phú,106.668592,10.7529727,106.6790625,10.7626244
Trần Phú,106.6795568,10.7631515,106.674132,10.7574203
Trần Quang Diệu,106.6782642,10.787646,106.6784817,10.7835849
Trần Quang Khải,106.6898524,10.7916682,106.6888956,10.7915069
Trần Quý,106.6518136,10.7582245,106.6561005,10.7591573
Trần Quý,106.6561005,10.7591573,106.6582987,10.7596357
Trần Quốc Hoàn,106.6643387,10.8050283,106.6635788,10.8026411
Trần Quốc Thảo,106.6868337,10.7827317,106.6881451,10.7815324
Trần Quốc Thảo,106.6881451,10.7815324,106.689846,10.7799599
Trần Quốc Toản,106.6892673,10.7893494,106.6863082,10.7831971
Trần Văn Giàu,106.5880278,10.7482734,106.5750441,10.7535831
Trần Văn Kiểu,106.6289013,10.7465385,106.6288456,10.7460179
Trần Văn Mười,106.5879562,10.8496569,106.5913288,10.8777391
Trần Văn Quang,106.6445172,10.7796593,106.6499053,10.7795043
Trần Văn Quang,106.6499053,10.7795043,106.6486116,10.779603
Trần Văn Trà,106.7191654,10.7229109,106.8257234,10.7230616
Trần Văn Trà,106.8257234,10.7230616,106.7236416,10.7256271
Trần Văn Ðang,106.6795303,10.7822564,106.6784842,10.7830627
Trần Xuân Soạn,106.6919615,10.7512278,106.6880473,10.7504862
Trần Ðình Xu,106.6924841,10.75857,106.6919236,10.759772
Trần Đại Nghĩa,106.7774485,10.8736394,106.5384069,10.7447939
Trịnh Phong Đáng,106.7575192,10.8670888,106.7546708,10.8663263
Trịnh Đình Trọng,106.6384349,10.7760645,106.6464389,10.7751926
Trịnh Đình Trọng,106.6464389,10.7751926,106.6474762,10.7752249
Tân Chánh Hiệp 2,106.6364066,10.870711,106.6306399,10.8741821
Tân Chánh Hiệp 2,106.629111,10.8745351,106.6270618,10.8750882
Tân Chánh Hiệp 39,106.6167264,10.8821993,106.6236125,10.8776763
Tân Chánh Hiệp 39,106.6248126,10.877165,106.6163333,10.8825854
Tân Hoà Đông,106.6342541,10.7542847,106.6326357,10.7560579
Tân Kỳ Tân Quý,106.6193962,10.7994476,106.6052666,10.7916934
Tân Liễu,106.5954928,10.6811514,106.5958303,10.6818
Tân Phú,106.7236203,10.7336193,106.7238132,10.7336036
Tân Quý,106.6196106,10.7987681,106.6203627,10.7951375
Tân Sơn,106.6467909,10.8385379,106.6412646,10.8248067
Tân Sơn Nhì,106.6353988,10.80264,106.636066,10.8028848
Tân Thuận,106.7500323,10.764817,106.749763,10.7644644
Tân Vĩnh,106.7023549,10.7564549,106.7015563,10.757461
Tân Xuân 1,106.6035093,10.8752155,106.6030332,10.8756688
Tân Xuân 2,106.6077482,10.8819132,106.6079617,10.8822319
Tây Hòa,106.7641935,10.8261485,106.7621148,10.8262034
Tây Thạnh,106.6226738,10.8131648,106.6249673,10.8157799
Tây Thạnh,106.620154,10.810356,106.6228898,10.813438
Tên Lửa,106.6149043,10.7384659,106.6147828,10.7379148
Tô Hiến Thành,106.6581461,10.7703883,106.6614007,10.7736176
Tô Hiến Thành,106.6614007,10.7736176,106.664107,10.7768372
Tô Hiến Thành,106.664107,10.7768372,106.6679193,10.7797849
Tô Hiến Thành,106.6679193,10.7797849,106.6716762,10.7825973
Tô Hiệu,106.6271541,10.7723432,106.6274402,10.7732289
Tô Ký,106.6024445,10.8876775,106.6262305,10.8527736
Tô Ký,106.6262305,10.8527736,106.6159466,10.8661857
Tô Ký,106.6160443,10.8658854,106.61763,10.8599399
Tô Ký,106.61763,10.8599399,106.6200389,10.8571859
Tô Ngọc Vân,106.7511235,10.8537487,106.6713827,10.8620076
Tôn Thất Hiệp,106.6544961,10.7657693,106.6522037,10.7626655
Tôn Thất Hiệp,106.6521869,10.7623556,106.6532907,10.7602645
Tôn Thất Thuyết,106.717736,10.7571329,106.7022171,10.7530896
Tôn Ðức Thắng,106.7062443,10.7704106,106.7062775,10.7705573
Tôn Đức Thắng,106.8475443,10.7154014,106.7056039,10.7829212
Tùng Thiện Vương,106.6599822,10.7463121,106.6600922,10.7463656
Tú Xương,106.6863035,10.7807024,106.6876354,10.782002
Tăng Nhơn Phú,106.7813494,10.8342567,106.7687697,10.827184
Tạ Uyên,106.6538517,10.7537462,106.6537349,10.7556925
Tạ Uyên,106.6537349,10.7556925,106.6537781,10.754424
Tản Đà,106.6646409,10.7510333,106.663899,10.7548043
Tỉnh lộ 43,106.7319907,10.8770572,106.7319664,10.8772691
Tống Văn Trân,106.6411857,10.7719941,106.6444321,10.769814
Ung Văn Khiêm,106.7184953,10.8070705,106.7190173,10.8069599
Vĩnh Hội,106.7008649,10.7557367,106.7009702,10.7558499
Vân Côi,106.6565352,10.7883735,106.6560806,10.7877277
Vòng xoay,106.6940372,10.8207283,106.6941876,10.8204546
Vòng xoay An Lạc,106.6010824,10.7237483,106.6010908,10.7238063
Vòng xoay Dương Bá Trạc,106.6893329,10.7388523,106.6895522,10.738675
Vòng xoay Lê Đại Hành,106.6524868,10.7690082,106.6524868,10.7690082
Vòng xoay Lạc Long Quân,106.6423452,10.7669732,106.6423817,10.7669707
Vòng xoay Mũi Tàu,106.6236611,10.745645,106.6236292,10.7456047
Vòng xoay Mỹ Thủy,106.7748933,10.7697992,106.7748651,10.7698665
Vòng xoay Ngã Sáu Gò Vấp,106.6800231,10.8263771,106.6798028,10.8265667
Vòng xoay Ngã Sáu Nguyễ Thái Sơn,106.6786185,10.8143542,106.6785004,10.8140447
Vòng xoay Phú Lâm,106.6340806,10.7540208,106.6340886,10.7539125
Vòng xoay Điện Biên Phủ,106.6992858,10.7921176,106.6992344,10.7921359
Võ Chí Công,106.7748346,10.769328,106.770577,10.7655125
Võ Chí Công,106.770577,10.7655125,106.7634266,10.7588708
Võ Chí Công,106.7614378,10.7568077,106.7927383,10.7917842
Võ Hữu Lợi,106.5406398,10.7495136,106.540609,10.749453
Võ Thị Sáu,106.6955574,10.7915641,106.6866724,10.7825478
Võ Thị Sáu,106.6864116,10.7823096,106.6826659,10.7785015
Võ Văn Kiệt,106.59955,10.7169989,106.7032148,10.7687081
Võ Văn Kiệt,106.6036625,10.7186024,106.6915488,10.7581329
Võ Văn Kiệt,106.6692116,10.7503613,106.6606556,10.7491553
Võ Văn Ngân,106.7550306,10.851171,106.7710929,10.8497041
Võ Văn Ngân,106.7710929,10.8497041,106.7715732,10.8496933
Võ Văn Tần,106.6956364,10.782412,106.6884994,10.7746152
Võ Văn Vân,106.5789943,10.8114752,106.578982,10.8112677
Vĩnh Lộc,106.5775667,10.8125836,106.577018,10.812224
Vĩnh Phú,106.7070109,10.8838911,106.7005955,10.8701485
Vĩnh Phú 14,106.706146,10.8683289,106.7062328,10.868702
Vũ Huy Tấn,106.6927346,10.7959469,106.6961219,10.7956893
Vườn Chuối,106.6838351,10.7722208,106.6840093,10.7720296
Vườn Lài,106.6313252,10.7880016,106.6935088,10.844574
Vườn Lài,106.6932002,10.845755,106.6917699,10.8606545
Vạn Kiếp,106.6597273,10.7504541,106.659871,10.7502217
X2,106.755623,10.7933726,106.7559349,10.7935165
Xa Lộ Hà Nội,106.7516401,10.8043176,106.7918394,10.8603257
Xa Lộ Hà Nội,106.7542574,10.8054703,106.7632003,10.8303445
Xa Lộ Hà Nội,106.7636119,10.8310841,106.757767,10.8167282
Xa Lộ Hà Nội,106.7343734,10.8000814,106.7457465,10.8019073
Xa Lộ Hà Nội,106.74573,10.8025311,106.7579707,10.817913
Xa Lộ Hà Nội,106.7581999,10.8187919,106.7695847,10.8418294
Xa Lộ Hà Nội,106.7715728,10.8453128,106.7645442,10.8329768
Xa Lộ Hà Nội,106.7645442,10.8329768,106.7675662,10.8385833
Xa Lộ Hà Nội,106.7675662,10.8385833,106.7965925,10.8633078
Xa Lộ Hà Nội,106.7965925,10.8633078,106.7392519,10.8010884
Xa Lộ Hà Nội,106.7392519,10.8010884,106.7438001,10.8020857
Xa Lộ Hà Nội,106.7438001,10.8020857,106.7363742,10.8006952
Xa Lộ Hà Nội,106.7363742,10.8006952,106.7646754,10.8336803
Xa Lộ Hà Nội,106.7646754,10.8336803,106.7498148,10.8030754
Xa Lộ Hà Nội,106.7498148,10.8030754,106.7555087,10.8084947
Xa Lộ Hà Nội,106.7555087,10.8084947,106.7715847,10.8458797
Xa Lộ Hà Nội,106.7715847,10.8458797,106.7887514,10.8584028
Xa Lộ Hà Nội,106.7904411,10.8594106,106.7878367,10.8581937
Xa Lộ Hà Nội,106.7877131,10.8581167,106.804085,10.8685319
Xa Lộ Hà Nội,106.804085,10.8685319,106.810076,10.8752397
Xa lộ Hà Nội,106.7838587,10.8557659,106.7548299,10.8069194
Xa lộ Hà Nội,106.7548299,10.8069194,106.7521024,10.8045382
Xa lộ Hà Nội,106.7521024,10.8045382,106.7714892,10.8454687
Xuân Diệu,106.6557557,10.7954312,106.655546,10.7955147
Xuân Hồng,106.6525329,10.7944927,106.6517611,10.7937384
Xuân Thới 15,106.5938542,10.8691692,106.5939939,10.8689519
Xuân Thới Sơn 21,106.597713,10.8668839,106.5977254,10.8668923
Xã Bà Điểm,106.6148154,10.8426751,106.6147804,10.8425774
Xã Hưng Long,106.6236614,10.6890588,106.6244123,10.6906363
Xã Tân Thới Nhì,106.6039116,10.8598764,106.6045252,10.8590069
Xã Tân Xuân,106.6085312,10.8746132,106.6088444,10.8748532
Xã Vĩnh Lộc B,106.5759596,10.7888288,106.5682102,10.7800867
Xã Đông Thạnh,106.6282581,10.8857251,106.6282883,10.8856777
Xóm Củi,106.6605461,10.746712,106.6605397,10.7467638
Xô Viết Nghệ Tĩnh,106.707195,10.7924505,106.7113752,10.8011855
cầu Rạch Ông,106.6892692,10.7507792,106.6893325,10.7507855
cầu vượt,106.6790072,10.8146011,106.6800056,10.8157766
cầu vượt vào sân bay,106.6648834,10.8101615,106.6650353,10.8122766
vòng xoay Thái Bình,106.6882291,10.7667749,106.6882753,10.7667953
Âu Cơ,106.6479407,10.7745839,106.6468632,10.7762937
Âu Cơ,106.6470365,10.7760618,106.6496421,10.7722809
Âu Cơ,106.6496421,10.7722809,106.6477936,10.7750261
Âu Dương Lân,106.6817654,10.7482816,106.6819277,10.7479796
Ðiện Biên Phủ,106.6745229,10.7678833,106.6927956,10.78553
Ðiện Biên Phủ,106.6927956,10.78553,106.685171,10.7780742
Ðiện Biên Phủ,106.685171,10.7780742,106.697507,10.7903743
Ông Ích Khiêm,106.6430415,10.7665422,106.6429996,10.7665527
Út Tịch,106.6575383,10.8009968,106.6591633,10.7934217
Đi ga quốc tế,106.6650669,10.8130678,106.6652668,10.8144166
Đi ga trong nước,106.6650353,10.8122766,106.6646772,10.8134346
Đinh Bộ Lĩnh,106.7127697,10.8180917,106.7093756,10.8029327
Đinh Tiên Hoàng,106.6958731,10.7918339,106.7024674,10.7858782
Điện Biên Phủ,106.7151083,10.8009447,106.7051673,10.7984442
Điện Biên Phủ,106.7040931,10.7973168,106.7008614,10.7938821
Điện Biên Phủ,106.7028286,10.7957979,106.7127424,10.8012607
Điện Biên Phủ,106.7192459,10.7989146,106.7199137,10.7981813
Đoàn Văn Bơ,106.7037719,10.7633776,106.7038326,10.763364
Đào Duy Anh,106.6740205,10.8081046,106.6781072,10.8054457
Đào Trinh Nhất,106.7609449,10.8625105,106.7590353,10.8650568
Đông Hồ,106.6517538,10.7841856,106.6540868,10.7836106
Đường số 12,106.7573234,10.8159526,106.756146,10.8100275
Đường số 7,106.6190633,10.7515592,106.6193735,10.7516045
Đường số 8,106.6894218,10.7357728,106.6896458,10.7357633
Đướng Nguyễn Hữu Cảnh,106.720103,10.7980288,106.7201402,10.7979697
Đướng Song Hành Xa Lộ Hà Nội,106.7326817,10.8007157,106.732697,10.8007639
Đường 3 Tháng 2,106.6667965,10.767686,106.6489673,10.7579254
Đường A,106.5938427,10.7495269,106.5939152,10.7495472
Đường An Dương Vương,106.6741653,10.7574828,106.6696815,10.7566055
Đường B1,106.6402306,10.8077887,106.6403983,10.8073545
Đường Bình Thới,106.6424096,10.7629749,106.6422594,10.7630776
Đường CN2,106.6245997,10.8155285,106.62442,10.8155179
Đường Cao tốc Tp. Hồ Chí Minh-Long Thành-Dầu Giây,106.8534308,10.7859271,106.7909752,10.7963832
Đường Châu Văn Liêm,106.6583269,10.7545372,106.6583935,10.7541599
Đường Cộng Hòa,106.6453771,10.8021815,106.644295,10.8022319
Đường D1,106.7878255,10.8578972,106.7879739,10.8579871
Đường D2,106.6193571,10.8011202,106.6193967,10.8012387
Đường D4,106.6957773,10.7452196,106.6957332,10.7452248
Đường GS1,106.7760528,10.8883021,106.7761239,10.8882135
Đường Hoàng Trọng Hậu,106.6961929,10.7400283,106.6961154,10.7400256
Đường Hàn Hải Nguyên,106.6496262,10.7580377,106.6489515,10.757963
Đường Hòa Bình,106.6422282,10.7669237,106.641639,10.7670183
Đường Hùng Vương,106.6746115,10.7610783,106.6740819,10.760649
Đường Hải Thượng Lãn Ông,106.6564736,10.750916,106.6633972,10.7504187
Đường Hồng Bàng,106.6538338,10.7537647,106.6695824,10.7566007
Đường Kinh Dương Vương,106.614443,10.737327,106.6242766,10.7461636
Đường Liên Ấp 6-2,106.5507126,10.8195165,106.5508201,10.8195126
Đường Long Thuận,106.8596808,10.8119329,106.8596881,10.8119103
Đường Lãnh Binh Thăng,106.6568525,10.7620808,106.6567535,10.7621391
Đường Lê Hồng Phong,106.6730236,10.7709488,106.6730236,10.7709488
Đường Lê Đại Hành,106.652716,10.7684337,106.65706,10.7623035
Đường Lý Thái Tổ,106.667873,10.7680397,106.6679949,10.7681015
Đường Lý Thường Kiệt,106.6559639,10.7778843,106.6615589,10.773825
Đường Lý Thường Kiệt,106.6615589,10.773825,106.6566757,10.7758068
Đường Lạc Long Quân,106.6422822,10.7664078,106.6421549,10.7632226
Đường Minh Phụng,106.6444788,10.7618932,106.6445646,10.7618644
Đường N,106.7159815,10.7246478,106.715968,10.7255698
Đường N - Bắc,106.7115662,10.7336611,106.7122498,10.7320511
Đường Nguyễn Chí Thanh,106.6727534,10.7607311,106.6740891,10.7607915
Đường Nguyễn Oanh,106.6799853,10.8263467,106.6799069,10.8259802
Đường Nguyễn Sơn,106.6332492,10.7810287,106.6249141,10.7834192
Đường Nguyễn Thái Học,106.7004904,10.7610014,106.7004391,10.7610792
Đường Nguyễn Thị Nhỏ,106.6507502,10.753478,106.6507301,10.7533959
Đường Nguyễn Tri Phương,106.6691456,10.758935,106.6695945,10.756601
Đường Nguyễn Trãi,106.6930476,10.7711638,106.6588732,10.7529979
Đường Nguyễn Văn Linh,106.6572305,10.7208632,106.7221401,10.7341285
Đường Ngô Quyền,106.6663734,10.7558381,106.6663734,10.7558381
Đường Pham Ngũ Lão,106.6808633,10.8251122,106.6801335,10.8262602
Đường Phan Văn Trị,106.6778193,10.83081,106.6777619,10.8308562
Đường Phú Hòa,106.6544818,10.785806,106.6538061,10.7856285
Đường Phạm Văn Đổng,106.6791508,10.8139646,106.6899702,10.8193249
Đường Quang Trung,106.6491032,10.8388107,106.6452271,10.8408842
Đường Song Hành,106.7528475,10.8055309,106.7489288,10.8031584
Đường Song Hành Xa lộ Hà Nội,106.7860239,10.8575649,106.7676582,10.8378557
Đường Song Hành Xa lộ Hà Nội,106.768291,10.8389857,106.7742039,10.8488622
Đường Song Hành Xa lộ Hà Nội,106.7742039,10.8488622,106.7849851,10.855961
Đường Song Hành Xa lộ Hà Nội,106.7849851,10.855961,106.788085,10.8578137
Đường Sư Vạn Hạnh,106.6710427,10.7697703,106.6710665,10.769677
Đường Số 10,106.7646391,10.7775374,106.7647651,10.7776559
Đường Số 15,106.7398113,10.7738467,106.7397513,10.773475
Đường Số 354/15 Đướng Lý Thường Kiêt,106.6587872,10.7760663,106.6587872,10.7760663
Đường Thoại Ngọc Hầu,106.6357625,10.7815006,106.6361909,10.7820031
Đường Thuận Kiều,106.6584197,10.7552474,106.6583409,10.7546122
Đường Thành Thái,106.666908,10.7681721,106.6636154,10.7764553
Đường Trần Hưng Ðạo,106.6694499,10.7526979,106.658894,10.7519097
Đường Trần Phú,106.6739837,10.757428,106.6683833,10.7526071
Đường Trần Văn Giàu,106.6082145,10.7520876,106.6081604,10.7519761
Đường Tên Lửa,106.6150634,10.7383637,106.6149888,10.73825
Đường Tô Hiệu,106.6269195,10.7639371,106.6269466,10.7639255
Đường Tùng Thiện Vương,106.6604334,10.746712,106.6604618,10.746844
Đường Tạ Uyên,106.6537848,10.7537874,106.6537256,10.7537826
Đường Vành đai ĐHQG,106.8104451,10.8804438,106.8088204,10.8780069
Đường Võ Văn Kiệt,106.6630864,10.7502942,106.6634461,10.7500276
Đường cao tốc Thành phố Hồ Chí Minh – Long Thành – Dầu Giây,106.7886419,10.796707,106.7760321,10.7961184
Đường cao tốc Tp. Hồ Chí Minh-Long Thành-Dầu Giây,106.7570472,10.7942306,106.7555931,10.7939773
Đường dẫn Cầu Thủ Thiêm,106.7199382,10.7828466,106.7205208,10.7820242
Đường dẫn Ga Quốc tế,106.6648995,10.8133493,106.6649688,10.8130718
Đường dẫn Sảnh Đến Quốc tế,106.6636437,10.8153763,106.6633414,10.8152546
Đường dẫn ga Quốc nội,106.6647613,10.8125831,106.6643593,10.8140262
Đường dẫn sảnh đi Quốc tế,106.6659991,10.8153557,106.6660397,10.8154126
Đường số 1,106.6957432,10.7443078,106.7881544,10.8671265
Đường số 10,106.7099956,10.7414548,106.6287236,10.7498061
Đường số 13,106.7663628,10.8641797,106.766054,10.8642639
Đường số 14,106.7747087,10.8671944,106.7749133,10.8675871
Đường số 15,106.7025956,10.7451997,106.702546,10.7452314
Đường số 17,106.7899405,10.8599601,106.7903213,10.8599391
Đường số 18B,106.5996935,10.7796339,106.5996261,10.7796381
Đường số 1A,106.6934274,10.7356907,106.6934288,10.7357575
Đường số 20,106.7225448,10.8292498,106.7225292,10.8292319
Đường số 4,106.6898242,10.7388679,106.6909482,10.7392345
Đường số 41,106.6997338,10.7579629,106.6997668,10.7579884
Đường số 48,106.6987348,10.758507,106.7008649,10.7557367
Đường số 5,106.7619572,10.87865,106.6057636,10.8060161
Đường số 54,106.5941698,10.7496063,106.594239,10.7496222
Đường số 6,106.7485967,10.8656041,106.7272126,10.8697421
Đường số 7,106.6046711,10.7390636,106.6048642,10.7388319
Đường số 8,106.7698521,10.8824106,106.6623835,10.8418186
Đường số 9,106.7549076,10.8629278,106.7549076,10.8629278
Đường số 9A,106.6884076,10.7292604,106.6880005,10.7288508
Đường tỉnh 743,106.7382056,10.8873863,106.7383228,10.8874344
Đường ven hồ trung tâm,106.71738,10.76937,106.7229301,10.7786804
Đường Âu Cơ,106.6519481,10.769155,106.6515852,10.7694423
Đường Ðiện Biên Phủ,106.6975675,10.790616,106.6976523,10.7905389
Đường Ông Ích Khiêm,106.6429996,10.7665527,106.6427319,10.7666288
Đường đất,106.7001735,10.8368731,106.6929691,10.830835
Đại Lộ III,106.7753601,10.8136383,106.7686852,10.8131985
Đại lộ Bình Dương,106.7145929,10.8690532,106.7005934,10.8882744
Đại lộ ĐHQG TPHCM,106.8076326,10.8738915,106.8056563,10.8749777
Đất Thánh,106.6568445,10.7821462,106.6600419,10.7827199
Đất Thánh,106.6602062,10.7828795,106.656532,10.7819
Đặng Nguyên Cẩn,106.6316452,10.7534511,106.6332036,10.7563978
Đặng Văn Bi,106.7634239,10.8422045,106.7634728,10.8421583
Đặng Văn Ngữ,106.6690254,10.7937455,106.6693074,10.794193
Đồng Đen,106.6458983,10.7969579,106.6428981,10.7889094
Đỗ Xuân Hợp,106.7658175,10.8355189,106.7658807,10.8354781
đường song hành cao tốc Long Thành Dầu Giây,106.7806947,10.7957644,106.7808587,10.7957648
Ấp Bắc,106.6413422,10.7997419,106.6415662,10.8000771
